[
  {
    "id": 1,
    "continent": "Oceania",
    "name": "Australia",
    "langCode": "en",
    "flagImg": "https://flagpedia.net/data/flags/h80/au.png",
    "attractions": [
      {
        "name": "Blue Mountain National Park",
        "location": {
          "latitude": -33.6175635,
          "longitude": 150.4559073
        }
      },
      {
        "name": "Daintree National Park",
        "location": {
          "latitude": -16.3014378,
          "longitude": 145.2480206
        }
      },
      {
        "name": "Uluru-Kata Tjuta National Park",
        "location": {
          "latitude": -25.3437797,
          "longitude": 131.0346514
        }
      },
      {
        "name": "Australia Zoo",
        "location": {
          "latitude": -26.8357181,
          "longitude": 152.963113
        }
      },
      {
        "name": "Great Barrier Reef Marine Park",
        "location": {
          "latitude": -19.2589635,
          "longitude": 146.8169483
        }
      }
    ],
    "phrases": [
      "What's the John Dory?",
      "No worries, mate, she'll be right",
      "Have a Captain Cook",
      "A few stubbies short of a six-pack",
      "Dog's breakfast"
    ]
  },
  {
    "id": 2,
    "continent": "South America",
    "name": "Argentina",
    "langCode": "es",
    "flagImg": "https://flagpedia.net/data/flags/h80/ar.png",
    "attractions": [
      {
        "name": "Iguaza Falls",
        "location": {
          "latitude": -25.695230,
          "longitude": -54.436718
        }
      },
      {
        "name": "Salinas Grandes",
        "location": {
          "latitude": -23.716666,
          "longitude": -66.030833
        }
      },
      {
        "name": "Perito Moreno Glacier",
        "location": {
          "latitude": -50.471054,
          "longitude": -73.057396
        }
      },
      {
        "name": "San Ignacio Mini",
        "location": {
          "latitude": 17.152279,
          "longitude": -89.080025
        }
      },
      {
        "name": "Cueva de las Manos",
        "location": {
          "latitude": -47.153166054,
          "longitude": -70.653164054
        }
      }
    ],
    "phrases": [
      "Mira Vos!",
      "Pelotudo",
      "Boludo",
      "Escuchame una cosita",
      "Che"
    ]
  },
  {
    "id": 3,
    "continent": "Europe",
    "name": "Belgium",
    "langCode": "nl",
    "flagImg": "https://flagpedia.net/data/flags/h80/be.png",
    "attractions": [
      {
        "name": "Antwerpen-Centraal Station",
        "location": {
          "latitude": 51.216944,
          "longitude": 4.421111
        }
      },
      {
        "name": "Gravensteen",
        "location": {
          "latitude": 51.05707,
          "longitude": 3.720756
        }
      },
      {
        "name": "Grand-Place Of Brussels",
        "location": {
          "latitude": 50.8467,
          "longitude": 4.3525
        }
      },
      {
        "name": "Leuven Town Hall",
        "location": {
          "latitude": 50.8789,
          "longitude": 4.7012
        }
      },
      {
        "name": "Liège-Guillemins railway station",
        "location": {
          "latitude": 50.624,
          "longitude": 5.567
        }
      }
    ],
    "phrases": [
      "If you dont use your head, youll use your pocketbook.",
      "It is no use waiting for your ship to come in unless you have sent one out",
      "The word that is heard perishes, but the letter that is written remains.",
      "Honour is better than honors.",
      "God is with those who persevere; Persevere and never fear."
    ]
  },
  {
    "id": 4,
    "continent": "Asia",
    "name": "China",
    "langCode": "zh",
    "flagImg": "https://flagpedia.net/data/flags/h80/cn.png",
    "attractions": [
      {
        "name": "Great Wall of China",
        "location": {
          "latitude": 40.431908,
          "longitude": 116.570374
        }
      },
      {
        "name": "Forgotten City",
        "location": {
          "latitude": 39.908829698,
          "longitude": 116.387665116
        }
      },
      {
        "name": "Tiananmen Square",
        "location": {
          "latitude": 39.901996392,
          "longitude": 116.38833178
        }
      },
      {
        "name": "Oriental Pearl TV Tower",
        "location": {
          "latitude": 31.239752,
          "longitude": 121.499588
        }
      },
      {
        "name": "Emperor Qinshihuang's Mausoleum Site Museum",
        "location": {
          "latitude": 34.383736,
          "longitude": 109.276390
        }
      }
    ],
    "phrases": [
      "Xièxiè",
      "Nǐhǎo",
      "Boo kuh-chi.",
      "Wǒ jiào",
      "Piányí yī diǎn."
    ]
  },
  {
    "id": 5,
    "continent": "North America",
    "name": "Mexico",
    "langCode": "es",
    "flagImg": "https://flagpedia.net/data/flags/h80/mx.png",
    "attractions": [
      {
        "name": "Monte Albán",
        "location": {
          "latitude": 17.039666508,
          "longitude": -96.767330264
        }
      },
      {
        "name": "Museo Nacional De Antropologia",
        "location": {
          "latitude": 40.407669,
          "longitude": -3.688975
        }
      },
      {
        "name": "Sistema Dos Ojos",
        "location": {
          "latitude": 20.32469,
          "longitude": -87.39199
        }
      },
      {
        "name": "Ik Kil",
        "location": {
          "latitude": 20.661636,
          "longitude": -88.549866
        }
      },
      {
        "name": "Copper Canyon",
        "location": {
          "latitude": 27.509664628,
          "longitude": -107.759496962
        }
      }
    ],
    "phrases": [
      "dónde está la leche?",
      "Agua que no has de beber, déjala correr",
      "Mejor solo que mal acompañado",
      "Escoge una persona que te mire como si quizás fueras magia",
      "Todo acto de creación, es un acto de amor"
    ]
  },
  {
    "id": 6,
    "continent": "Oceania",
    "name": "New Zealand",
    "langCode": "en",
    "flagImg": "https://flagpedia.net/data/flags/h80/nz.png",
    "attractions": [
      {
        "name": "Mt Cook",
        "location": {
          "latitude": -43.5907793035,
          "longitude": 170.137957782
        }
      },
      {
        "name": "Sky Tower",
        "location": {
          "latitude": -36.848450,
          "longitude": 174.762192
        }
      },
      {
        "name": "Huka Falls",
        "location": {
          "latitude": -38.649497,
          "longitude": 176.089683
        }
      },
      {
        "name": "Blue Pools",
        "location": {
          "latitude": -44.1641,
          "longitude": 169.2768
        }
      },
      {
        "name": "Tongariro Crossing",
        "location": {
          "latitude": -39.2727,
          "longitude": 175.5802
        }
      }
    ],
    "phrases": [
      "Sweet as",
      "She'll be right",
      "Pack a sad",
      "Piece of piss",
      "I'm pretty chocka"
    ]
  },
  {
    "id": 7,
    "continent": "Africa",
    "name": "South Africa",
    "langCode": "af",
    "flagImg": "https://flagpedia.net/data/flags/h80/za.png",
    "attractions": [
      {
        "name": "The Castle of Good Hope",
        "location": {
          "latitude": -33.925868,
          "longitude": 18.427803
        }
      },
      {
        "name": "Robben Island",
        "location": {
          "latitude": -33.806734,
          "longitude": 18.366222
        }
      },
      {
        "name": "The Afrikaans Language Monument",
        "location": {
          "latitude": -33.76576,
          "longitude": 18.94257
        }
      },
      {
        "name": "Union Buildings",
        "location": {
          "latitude": -25.7376103829,
          "longitude": 28.2072125045
        }
      },
      {
        "name": "Voortrekker Monument",
        "location": {
          "latitude": -25.77249691,
          "longitude": 28.172165978
        }
      }
    ],
    "phrases": [
      "Aikona",
      "Babbelas",
      "Bitter koud",
      "Braai",
      "Domkop"
    ]
  },
  {
    "id": 8,
    "continent": "Europe",
    "name": "United Kingdom",
    "langCode": "en",
    "flagImg": "https://flagpedia.net/data/flags/h80/gb.png",
    "attractions": [
      {
        "name": "London Eye",
        "location": {
          "latitude": 51.503399,
          "longitude": -0.119519
        }
      },
      {
        "name": "Big Ben",
        "location": {
          "latitude": 51.510357,
          "longitude": -0.116773
        }
      },
      {
        "name": "Seven Sisters Cliffs",
        "location": {
          "latitude": 50.76,
          "longitude": 0.16
        }
      },
      {
        "name": "Warwick Castle",
        "location": {
          "latitude": 52.279668,
          "longitude": -1.585228
        }
      },
      {
        "name": "Stonehenge",
        "location": {
          "latitude": 51.1739726374,
          "longitude": -1.82237671048
        }
      }
    ],
    "phrases": [
      "Fancy a cuppa?",
      "I'm chuffed to bits!",
      "Bollocks",
      "Brass monkey",
      "Have a chinwag"
    ]
  }
]